[
  {
    "name": "El Buen Sabor",
    "address": "Av. Reforma 120, CDMX",
    "phone": "555-123-4567",
    "cuisine": "Mexicana",
    "website": "https://elbuen-sabor.mx",
    "location": { "type": "Point", "coordinates": [-99.1332, 19.4326] }
  },
  {
    "name": "Sushi Zen",
    "address": "Insurgentes Sur 3500, CDMX",
    "phone": "555-987-6543",
    "cuisine": "Japonesa",
    "website": "https://sushizen.com.mx",
    "location": { "type": "Point", "coordinates": [-99.1818, 19.3553] }
  },
  {
    "name": "La Trattoria Italiana",
    "address": "Av. Universidad 250, CDMX",
    "phone": "555-445-6677",
    "cuisine": "Italiana",
    "website": "https://latrattoria.mx",
    "location": { "type": "Point", "coordinates": [-99.1635, 19.3458] }
  },
  {
    "name": "Burger Station",
    "address": "Av. Ju√°rez 180, Puebla",
    "phone": "222-555-9090",
    "cuisine": "Americana",
    "website": "https://burgerstation.mx",
    "location": { "type": "Point", "coordinates": [-98.2032, 19.0433] }
  }
]
